{
    "city": "Izmit",
    "taxi": {
      "openingFee": 10.0,
      "costPerKm": 4.0
    },
    "duraklar": [
      {
        "id": "bus_otogar",
        "name": "Otogar (Bus)",
        "type": "bus",
        "lat": 40.77639981104225,
        "lon": 29.971464872360233,
        "sonDurak": false,
        "nextStops": [
          {
            "stopId": "bus_sekapark",
            "mesafe": 3.5,
            "sure": 10,
            "ucret": 3.0
          }
        ],
        "transfer": {
          "transferStopId": "tram_otogar",
          "transferSure": 2,
          "transferUcret": 0.5
        }
      },
      {
        "id": "bus_sekapark",
        "name": "Sekapark (Bus)",
        "type": "bus",
        "lat": 40.762921845879745,
        "lon": 29.911748170852665,
        "sonDurak": false,
        "nextStops": [
          {
            "stopId": "bus_yahyakaptan",
            "mesafe": 2.0,
            "sure": 8,
            "ucret": 2.5
          },
          {
            "stopId": "bus_symbolavm",
            "mesafe": 4.0,
            "sure": 12,
            "ucret": 3.5
          },
          {
            "stopId": "bus_arizli",
            "mesafe": 4.0,
            "sure": 8,
            "ucret": 5.0
          },
          {
            "stopId": "bus_41burda",
            "mesafe": 4.5,
            "sure": 14,
            "ucret": 3.5
          }
        ],
        "transfer": {
          "transferStopId": "tram_sekapark",
          "transferSure": 3,
          "transferUcret": 0.0
        }
      },
      {
        "id": "bus_yahyakaptan",
        "name": "Yahya Kaptan (Bus)",
        "type": "bus",
        "lat": 40.76805030051273,
        "lon": 29.975831508636475,
        "sonDurak": false,
        "nextStops": [
          {
            "stopId": "bus_umuttepe",
            "mesafe": 5.0,
            "sure": 12,
            "ucret": 4.0
          }
        ],
        "transfer": {
          "transferStopId": "tram_yahyakaptan",
          "transferSure": 2,
          "transferUcret": 0.0
        }
      },
      {
        "id": "bus_umuttepe",
        "name": "Umuttepe (Bus)",
        "type": "bus",
        "lat": 40.82414582171323,
        "lon": 29.920749664306644,
        "sonDurak": true,
        "nextStops": [],
        "transfer": null
      },
      {
        "id": "bus_arizli",
        "name": "Arizli (Bus)",
        "type": "bus",
        "lat": 40.80158033332406,
        "lon": 29.909000737446046,
        "sonDurak": false,
        "nextStops": [
          {
            "stopId": "bus_umuttepe",
            "mesafe": 2.0,
            "sure": 4,
            "ucret": 3.0
          }
        ],
        "transfer": null
      },
  
      {
        "id": "bus_symbolavm",
        "name": "Symbol AVM (Bus)",
        "type": "bus",
        "lat": 40.7594301188548,
        "lon": 29.97992992401123,
        "sonDurak": true,
        "nextStops": [],
        "transfer": null
      },
      {
        "id": "bus_41burda",
        "name": "41 Burda AVM (Bus)",
        "type": "bus",
        "lat": 40.75509954684742,
        "lon": 29.947142601013187,
        "sonDurak": true,
        "nextStops": [],
        "transfer": null
      },
  
      {
        "id": "tram_otogar",
        "name": "Otogar (Tram)",
        "type": "tram",
        "lat": 40.77583314728151,
        "lon": 29.97565448284149,
        "sonDurak": false,
        "nextStops": [
          {
            "stopId": "tram_yahyakaptan",
            "mesafe": 1.2,
            "sure": 5,
            "ucret": 2.5
          }
        ],
        "transfer": {
          "transferStopId": "bus_otogar",
          "transferSure": 2,
          "transferUcret": 0.5
        }
      },
      {
        "id": "tram_yahyakaptan",
        "name": "Yahya Kaptan (Tram)",
        "type": "tram",
        "lat": 40.76745594313756,
        "lon": 29.97406125068665,
        "sonDurak": false,
        "nextStops": [
          {
            "stopId": "tram_halkevi",
            "mesafe": 2.0,
            "sure": 6,
            "ucret": 2.0
          }
        ],
        "transfer": {
          "transferStopId": "bus_yahyakaptan",
          "transferSure": 2,
          "transferUcret": 0.0
        }
      },
      {
        "id": "tram_sekapark",
        "name": "Sekapark (Tram)",
        "type": "tram",
        "lat": 40.76140202438199,
        "lon": 29.91089522838593,
        "sonDurak": false,
        "nextStops": [
          {
            "stopId": "tram_halkevi",
            "mesafe": 3.0,
            "sure": 7,
            "ucret": 1.5
          }
        ],
        "transfer": {
          "transferStopId": "bus_sekapark",
          "transferSure": 3,
          "transferUcret": 0.0
        }
      },
      {
        "id": "tram_halkevi",
        "name": "Halkevi (Tram)",
        "type": "tram",
        "lat": 40.76221470808451,
        "lon": 29.925792217254642,
        "sonDurak": true,
        "nextStops": [],
        "transfer": null
      }
    ]
  }